     3.02           OBSERVATION DATA    M                   RINEX VERSION / TYPE
Converto v3.5.1     IGN-RGP             20180522 013009 UTC PGM / RUN BY / DATE
SNR is mapped to RINEX snr flag value [1-9]                 COMMENT
LX:     < 12dBHz -> 1; 12-17dBHz -> 2; 18-23dBHz -> 3       COMMENT
       24-29dBHz -> 4; 30-35dBHz -> 5; 36-41dBHz -> 6       COMMENT
       42-47dBHz -> 7; 48-53dBHz -> 8; >= 54dBHz -> 9       COMMENT
ABMF                                                        MARKER NAME
97103M001                                                   MARKER NUMBER
Automatic           Institut Geographique National          OBSERVER / AGENCY
1830399             LEICA GR25          4.11                REC # / TYPE / VERS
1441112501          TRM57971.00     NONE                    ANT # / TYPE
  2919786.4480 -5383745.1780  1774604.7340                  APPROX POSITION XYZ
        0.0000        0.0000        0.0000                  ANTENNA: DELTA H/E/N
G   12 C1C L1C D1C S1C C2W L2W D2W S2W C5Q L5Q D5Q S5Q      SYS / # / OBS TYPES
R    8 C1C L1C D1C S1C C2P L2P D2P S2P                      SYS / # / OBS TYPES
E   16 C1C L1C D1C S1C C5Q L5Q D5Q S5Q C7Q L7Q D7Q S7Q C8Q  SYS / # / OBS TYPES
       L8Q D8Q S8Q                                          SYS / # / OBS TYPES
C    8 C1I L1I D1I S1I C7I L7I D7I S7I                      SYS / # / OBS TYPES
S    4 C1C L1C D1C S1C                                      SYS / # / OBS TYPES
DBHZ                                                        SIGNAL STRENGTH UNIT
    30.000                                                  INTERVAL
  2018    05    21    00    00    0.0000000     GPS         TIME OF FIRST OBS
  2018    05    21    23    59   30.0000000     GPS         TIME OF LAST OBS
     0                                                      RCV CLOCK OFFS APPL
G L2S -0.25000                                              SYS / PHASE SHIFT
G L2X -0.25000                                              SYS / PHASE SHIFT
R L2P  0.25000                                              SYS / PHASE SHIFT
E L8Q -0.25000                                              SYS / PHASE SHIFT
 24 R01  1 R02 -4 R03  5 R04  6 R05  1 R06 -4 R07  5 R08  6 GLONASS SLOT / FRQ #
    R09 -2 R10 -7 R11  0 R12 -1 R13 -2 R14 -7 R15  0 R16 -1 GLONASS SLOT / FRQ #
    R17  4 R18 -3 R19  3 R20  2 R21  4 R22 -3 R23  3 R24  2 GLONASS SLOT / FRQ #
 C1C  -71.940 C1P  -71.940 C2C  -71.940 C2P  -71.940        GLONASS COD/PHS/BIS
    18    18  1929     7                                    LEAP SECONDS
                                                            END OF HEADER
> 2018 05 21 00 00  0.0000000  0 27
G02  23208185.178   121959841.72207       842.720          46.000    23208176.217    95033606.58406       656.665          40.200
G05  21846586.149   114804590.71108      1938.025          49.750    21846579.613    89458099.30007      1510.149          43.400
G06  21957580.319   115387868.31608      -188.910          48.250    21957577.049    89912612.47507      -147.202          45.000    21957579.576    86166258.34708      -141.073          51.750
G09  22356276.721   117483031.03308      -724.911          48.300    22356272.476    91545200.61307      -564.866          42.800    22356273.723    87730822.51308      -541.315          50.000
G12  23298967.210   122436901.72607      1627.455          46.400    23298961.197    95405361.86406      1268.147          36.700
G13  25534742.768   134185967.67106      2963.048          39.600    25534736.971   104560473.19005      2308.869          32.450
G17  20891280.293   109784416.35408      -283.651          50.150    20891273.694    85546273.51807      -221.026          46.150
G19  20668849.855   108615541.99008       405.867          48.650    20668840.975    84635451.52708       316.261          48.450
G23  25471929.509   133855891.42006     -2106.102          39.400    25471920.076   104303247.45704     -1641.112          29.450
G28  23540154.042   123704344.44507     -3338.388          42.450    23540146.799    96392975.43305     -2601.333          35.350
G30  25602765.370   134543441.54505       138.587          32.900    25602762.648   104839021.21504       107.998          25.900    25602763.056   100470745.04107       103.597          42.200
R01  20256389.205   108282015.22507      2795.858          45.450    20256390.806    84219356.05807      2174.558          42.300
R07  22330202.198   119535314.64507     -3784.473          44.000    22330200.808    92971909.38907     -2943.480          44.100
R08  19291609.562   103305691.61907      -852.696          45.900    19291606.603    80348865.86708      -663.207          49.100
R12  23896956.917   127653239.19406     -2468.455          39.550
R13  23694199.015   126525690.78206     -1479.679          36.600    23694200.907    98408893.24205     -1150.857          34.050
R21  23713027.062   126893193.58406     -1699.653          38.400    23713025.783    98694715.31206     -1321.948          39.000
R22  21071091.530   112478915.10107       442.582          47.700    21071091.216    87483604.13307       344.231          45.950
R23  21928037.260   117300222.94607      2470.122          45.350    21928039.069    91233510.89706      1921.206          38.850
E01  27474213.110   144377965.60947      -450.296          46.150    27474213.219   107814719.00907      -336.457          45.900    27474211.302   110627269.86608      -345.223          48.950    27474212.373   109220993.18507      -340.781          43.350
E07  23466712.745   123318409.90648       780.648          51.550    23466713.480    92088427.26408       582.979          52.100    23466710.988    94490727.04908       598.221          53.150    23466712.331    93289577.91108       590.616          50.950
E08  23378245.694   122853512.28848     -1742.329          50.250    23378244.941    91741254.37108     -1301.055          50.200    23378242.709    94134498.53508     -1334.960          52.100    23378243.541    92937876.70708     -1318.011          48.400
E26  24059734.260   126434762.92748      1386.564          49.300    24059735.280    94415576.74708      1035.513          49.250    24059733.001    96878583.69108      1062.483          51.550    24059734.401    95647079.47107      1049.034          47.250
S20  38184593.161   200661387.18607       -29.703          42.350
S31  39060780.006   205265790.80907          .431          44.500
S35  40668978.831   213716960.66706        -2.080          39.900
S38  38182609.542   200650969.20407        -4.787          46.700
> 2018 05 21 00 00 30.0000000  0 26
G02  23203363.926   121934505.50807       846.331          46.050    23203354.907    95013864.10206       659.478          40.100
G05  21835559.884   114746647.52508      1924.776          49.500    21835553.415    89412948.79407      1499.826          43.350
G06  21958653.488   115393507.71708      -187.124          48.050    21958650.241    89917006.83307      -145.810          44.900    21958652.513    86170469.60908      -139.727          51.750
G09  22360461.446   117505022.56608      -741.217          48.350    22360457.339    91562336.90007      -577.572          42.900    22360458.344    87747244.78108      -553.467          49.800
G12  23289721.135   122388313.04507      1611.794          46.600    23289715.028    95367500.60206      1255.946          38.200
G13  25517802.868   134096947.71306      2971.712          40.050    25517797.098   104491106.99305      2315.621          32.650
G17  20892942.062   109793148.22308      -298.542          50.250    20892935.330    85553077.57907      -232.629          46.050
G19  20666570.595   108603564.59708       392.581          48.750    20666561.716    84626118.49608       305.907          48.050
G23  25483980.917   133919223.86806     -2116.150          37.650    25483971.811   104352597.37804     -1648.950          29.750
G28  23559212.405   123804496.64506     -3338.304          41.100    23559205.272    96471016.13005     -2601.273          30.850
R01  20240751.315   108198422.17307      2776.713          45.650    20240752.833    84154339.25807      2159.667          42.050
R07  22351437.482   119648988.95707     -3793.777          42.200    22351435.840    93060322.76507     -2950.714          42.300
R08  19296456.665   103331648.50707      -877.899          45.950    19296453.982    80369054.56708      -682.810          49.150
R12  23910800.604   127727190.43506     -2461.439          37.850
R13  23702541.244   126570235.71106     -1489.481          36.950    23702542.398    98443539.41505     -1158.480          33.800
R21  23722585.383   126944341.97406     -1710.460          40.950    23722584.228    98734497.45306     -1330.355          39.050
R22  21068627.678   112465762.97507       434.072          47.300    21068627.105    87473374.71907       337.613          45.800
R23  21914176.412   117226075.83107      2473.256          44.850    21914177.762    91175840.91806      1923.645          39.300
E01  27476811.589   144391623.18147      -459.926          45.250    27476812.179   107824917.88407      -343.505          46.000    27476809.871   110637734.79608      -352.423          49.000    27476811.357   109231325.09707      -348.014          43.350
E07  23462291.280   123295174.81848       768.208          51.500    23462291.848    92071076.40208       573.727          52.100    23462289.434    94472923.55708       588.656          53.150    23462290.841    93272000.73508       581.167          50.900
E08  23388219.964   122905926.92748     -1752.090          50.200    23388219.372    91780395.18208     -1308.356          50.200    23388216.912    94174660.41408     -1342.484          52.050    23388217.723    92977528.05108     -1325.434          48.300
E26  24051807.456   126393107.07248      1390.328          49.300    24051808.342    94384470.12808      1038.276          49.250    24051805.951    96846665.58308      1065.407          51.450    24051807.500    95615567.11007      1051.845          47.100
S20  38184759.117   200662262.10007       -29.002          42.250
S31  39060776.999   205265775.17207          .823          44.250
S35  40668988.705   213717013.49306        -1.835          39.600
S38  38182636.593   200651111.89007        -4.457          46.600
